{
    "code": 200,
    "status": "OK",
    "data": [
        {
            "coordinates": {
                "latitude": 13.066682,
                "longitude": 80.224741
            },
            "location": {
                "name": "Chennai",
                "label": "Chennai, TN, India",
                "country": {
                    "code": "IN",
                    "name": "India"
                },
                "region": "Tamil Nadu",
                "locality": "Chennai",
                "county": "Chennai",
                "continent": "Asia"
            },
            "search": "chennai, tamilnadu",
            "processed": "chennai, tamilnadu"
        },
        {
            "coordinates": {
                "latitude": 13.08633,
                "longitude": 80.274568
            },
            "location": {
                "name": "Chennai Central",
                "label": "Chennai Central, Chennai, TN, India",
                "country": {
                    "code": "IN",
                    "name": "India"
                },
                "region": "Tamil Nadu",
                "locality": "Chennai",
                "county": "Chennai",
                "continent": "Asia"
            },
            "search": "chennai, tamilnadu",
            "processed": "chennai, tamilnadu"
        },
        {
            "coordinates": {
                "latitude": 13.01331,
                "longitude": 80.189846
            },
            "location": {
                "name": "Chennai Trade Center",
                "label": "Chennai Trade Center, Chennai, TN, India",
                "country": {
                    "code": "IN",
                    "name": "India"
                },
                "region": "Tamil Nadu",
                "locality": "Chennai",
                "county": "Chennai",
                "continent": "Asia"
            },
            "search": "chennai, tamilnadu",
            "processed": "chennai, tamilnadu"
        },
        {
            "coordinates": {
                "latitude": 13.081725,
                "longitude": 80.273916
            },
            "location": {
                "name": "Chennai Central",
                "label": "Chennai Central, Chennai, TN, India",
                "country": {
                    "code": "IN",
                    "name": "India"
                },
                "region": "Tamil Nadu",
                "locality": "Chennai",
                "county": "Chennai",
                "continent": "Asia"
            },
            "search": "chennai, tamilnadu",
            "processed": "chennai, tamilnadu"
        },
        {
            "coordinates": {
                "latitude": 13.083809,
                "longitude": 80.283236
            },
            "location": {
                "name": "Chennai Fort",
                "label": "Chennai Fort, Chennai, TN, India",
                "country": {
                    "code": "IN",
                    "name": "India"
                },
                "region": "Tamil Nadu",
                "locality": "Chennai",
                "county": "Chennai",
                "continent": "Asia"
            },
            "search": "chennai, tamilnadu",
            "processed": "chennai, tamilnadu"
        },
        {
            "coordinates": {
                "latitude": 13.077749,
                "longitude": 80.261257
            },
            "location": {
                "name": "Chennai Egmore",
                "label": "Chennai Egmore, Chennai, TN, India",
                "country": {
                    "code": "IN",
                    "name": "India"
                },
                "region": "Tamil Nadu",
                "locality": "Chennai",
                "county": "Chennai",
                "continent": "Asia"
            },
            "search": "chennai, tamilnadu",
            "processed": "chennai, tamilnadu"
        },
        {
            "coordinates": {
                "latitude": 13.080754,
                "longitude": 80.273088
            },
            "location": {
                "name": "Chennai Park",
                "label": "Chennai Park, Chennai, TN, India",
                "country": {
                    "code": "IN",
                    "name": "India"
                },
                "region": "Tamil Nadu",
                "locality": "Chennai",
                "county": "Chennai",
                "continent": "Asia"
            },
            "search": "chennai, tamilnadu",
            "processed": "chennai, tamilnadu"
        },
        {
            "coordinates": {
                "latitude": 13.093949,
                "longitude": 80.292509
            },
            "location": {
                "name": "Chennai Beach",
                "label": "Chennai Beach, Chennai, TN, India",
                "country": {
                    "code": "IN",
                    "name": "India"
                },
                "region": "Tamil Nadu",
                "locality": "Chennai",
                "county": "Chennai",
                "continent": "Asia"
            },
            "search": "chennai, tamilnadu",
            "processed": "chennai, tamilnadu"
        },
        {
            "coordinates": {
                "latitude": 13.074342,
                "longitude": 80.242421
            },
            "location": {
                "name": "Chennai Chetpat",
                "label": "Chennai Chetpat, Chennai, TN, India",
                "country": {
                    "code": "IN",
                    "name": "India"
                },
                "region": "Tamil Nadu",
                "locality": "Chennai",
                "county": "Chennai",
                "continent": "Asia"
            },
            "search": "chennai, tamilnadu",
            "processed": "chennai, tamilnadu"
        },
        {
            "coordinates": {
                "latitude": 25.787049,
                "longitude": -100.469223
            },
            "location": {
                "name": "Chennai",
                "label": "Chennai, NLE, Mexico",
                "country": {
                    "code": "MX",
                    "name": "Mexico"
                },
                "region": "Nuevo León",
                "county": "García",
                "continent": "North America"
            },
            "search": "chennai, tamilnadu",
            "processed": "chennai, tamilnadu"
        }
    ]
}